[
  {
    "city": "San Francisco",
    "state_region": "CA",
    "country":" USA",
    "lat":37.7749295,
    "lng":-122.4194155
  },

  {
    "city":"Los Angeles",
    "state_region":" CA",
    "country":" USA",
    "lat":34.0522342,
    "lng":-118.2436849
  },

  {
    "city":"Chicago",
    "state_region":" IL",
    "country":"USA",
    "lat":41.8781136,
    "lng":-87.6297982
  },

  {
    "city":"Charleston",
    "state_region":" SC",
    "country":" USA",
    "lat":32.7764749,
    "lng":-79.93105120000001
  },

  {
    "city":"Las Vegas",
    "state_region":" NV",
    "country":" USA",
    "lat":36.1699412,
    "lng":-115.1398296
  },

  {
    "city":"Seattle",
    "state_region":" WA",
    "country":" USA",
    "lat":47.6062095,
    "lng":-122.3320708
  },

  {
    "city":"Washington",
    "state_region":" DC",
    "country":" USA",
    "lat":38.9071923,
    "lng":-77.0368707
  },

  {
    "city":"New Orleans",
    "state_region":" LA",
    "country":" USA",
    "lat":29.95106579999999,
    "lng":-90.0715323
  },

  {
    "city":"San Diego",
    "state_region":" CA",
    "country":" USA",
    "lat":32.715738,
    "lng":-117.1610838
  },

  {
    "city":"St. Louis",
    "state_region":" MO",
    "country":" USA",
    "lat":38.6270025,
    "lng":-90.19940419999999
  },

  {
    "city":"Honolulu",
    "state_region":" HI",
    "country":" USA",
    "lat":21.3069444,
    "lng":-157.8583333
  },

  {
    "city":"Miami",
    "state_region":" FL",
    "country":" USA",
    "lat":25.7616798,
    "lng":-80.1917902
  },

  {
    "city":"Branson",
    "state_region":" MO 65616",
    "country":" USA",
    "lat":36.6436731,
    "lng":-93.21851439999999
  },

  {
    "city":"Boston",
    "state_region":" MA",
    "country":" USA",
    "lat":42.3600825,
    "lng":-71.0588801
  },

  {
    "city":"Savannah",
    "state_region":" GA",
    "country":" USA",
    "lat":32.0835407,
    "lng":-81.09983419999999
  },

  {
    "city":"Orlando",
    "state_region":" FL",
    "country":" USA",
    "lat":28.5383355,
    "lng":-81.3792365
  },

  {
    "city":"Portland",
    "state_region":" OR",
    "country":" USA",
    "lat":45.5230622,
    "lng":-122.6764816
  },

  {
    "city":"Lahaina",
    "state_region":" HI",
    "country":" USA",
    "lat":20.8783333,
    "lng":-156.6825
  },

  {
    "city":"Nashville",
    "state_region":" TN",
    "country":" USA",
    "lat":36.1626638,
    "lng":-86.7816016
  },

  {
    "city":"San Antonio",
    "state_region":" TX",
    "country":" USA",
    "lat":29.4241219,
    "lng":-98.49362819999999
  },

  {
    "city":"Austin",
    "state_region":" TX",
    "country":" USA",
    "lat":30.267153,
    "lng":-97.7430608
  },

  {
    "city":"Minneapolis",
    "state_region":" MN",
    "country":" USA",
    "lat":44.977753,
    "lng":-93.2650108
  },

  {
    "city":"Seoul",
    "state_region":"",
    "country":" South Korea",
    "lat":37.566535,
    "lng":126.9779692
  },

  {
    "city":"São Paulo",
    "state_region":" State of São Paulo",
    "country":" Brazil",
    "lat":-23.5505199,
    "lng":-46.63330939999999
  },

  {
    "city":"Mumbai",
    "state_region":" Maharashtra",
    "country":" India",
    "lat":19.0759837,
    "lng":72.8776559
  },

  {
    "city":"Jakarta",
    "state_region":" Special Capital Region of Jakarta",
    "country":" Indonesia",
    "lat":-6.2087634,
    "lng":106.845599
  },

  {
    "city":"Karachi",
    "state_region":"",
    "country":" Pakistan",
    "lat":24.8614622,
    "lng":67.0099388
  },

  {
    "city":"Moscow",
    "state_region":"",
    "country":" Russia",
    "lat":55.755826,
    "lng":37.6173
  },

  {
    "city":"Istanbul",
    "state_region":" İstanbul",
    "country":" Turkey",
    "lat":41.0082376,
    "lng":28.9783589
  },

  {
    "city":"Mexico City",
    "state_region":"",
    "country":" Mexico",
    "lat":19.4326077,
    "lng":-99.133208
  },

  {
    "city":"Shanghai",
    "state_region":"",
    "country":" China",
    "lat":31.230416,
    "lng":121.473701
  },

  {
    "city":"Tokyo",
    "state_region":"",
    "country":" Japan",
    "lat":35.7090259,
    "lng":139.7319925
  },

  {
    "city":"New York",
    "state_region":" NY",
    "country":" USA",
    "lat":40.7127837,
    "lng":-74.0059413
  },

  {
    "city":"Bangkok",
    "state_region":"",
    "country":" Thailand",
    "lat":13.7563309,
    "lng":100.5017651
  },

  {
    "city":"Beijing",
    "state_region":"",
    "country":" China",
    "lat":39.904211,
    "lng":116.407395
  },

  {
    "city":"Delhi",
    "state_region":"",
    "country":" India",
    "lat":28.7040592,
    "lng":77.10249019999999
  },

  {
    "city":"London",
    "state_region":"",
    "country":" UK",
    "lat":51.5073509,
    "lng":-0.1277583
  },

  {
    "city":"Hong Kong",
    "state_region":"",
    "country":"Hong Kong",
    "lat":22.396428,
    "lng":114.109497
  },

  {
    "city":"Cairo",
    "state_region":" Cairo Governorate",
    "country":" Egypt",
    "lat":30.0444196,
    "lng":31.2357116
  },

  {
    "city":"Tehran",
    "state_region":" Tehran Province",
    "country":" Iran",
    "lat":35.6891975,
    "lng":51.3889736
  },

  {
    "city":"Bogotá",
    "state_region":" Bogota",
    "country":" Colombia",
    "lat":4.710988599999999,
    "lng":-74.072092
  },

  {
    "city":"Bandung",
    "state_region":" Bandung City",
    "country":" Indonesia",
    "lat":-6.9174639,
    "lng":107.6191228
  },

  {
    "city":"Tianjin",
    "state_region":"",
    "country":" China",
    "lat":39.084158,
    "lng":117.200983
  },

  {
    "city":"Lima District",
    "state_region":"",
    "country":" Peru",
    "lat":-12.046374,
    "lng":-77.0427934
  },

  {
    "city":"Rio de Janeiro",
    "state_region":" State of Rio de Janeiro",
    "country":" Brazil",
    "lat":-22.9068467,
    "lng":-43.1728965
  },

  {
    "city":"Lahore",
    "state_region":"",
    "country":" Pakistan",
    "lat":31.55460609999999,
    "lng":74.3571581
  },

  {
    "city":"Bogor",
    "state_region":" Kp. Parung Jambu",
    "country":" Indonesia",
    "lat":-6.597146899999999,
    "lng":106.8060388
  },

  {
    "city":"Santiago",
    "state_region":" Santiago Metropolitan Region",
    "country":" Chile",
    "lat":-33.4378305,
    "lng":-70.6504492
  },

  {
    "city":"St Petersburg",
    "state_region":"",
    "country":" Russia",
    "lat":59.9342802,
    "lng":30.3350986
  },

  {
    "city":"Shenyang",
    "state_region":" Liaoning",
    "country":" China",
    "lat":41.805699,
    "lng":123.431472
  },

  {
    "city":"Kolkata",
    "state_region":" West Bengal",
    "country":" India",
    "lat":22.572646,
    "lng":88.36389500000001
  },

  {
    "city":"Wuhan",
    "state_region":" Hubei",
    "country":" China",
    "lat":30.593099,
    "lng":114.305393
  },

  {
    "city":"Sydney NSW",
    "state_region":"",
    "country":" Australia",
    "lat":-33.8688197,
    "lng":151.2092955
  },

  {
    "city":"Guangzhou",
    "state_region":" Guangdong",
    "country":" China",
    "lat":23.12911,
    "lng":113.264385
  },

  {
    "city":"Singapore",
    "state_region":"",
    "country":"Singapore",
    "lat":1.3553794,
    "lng":103.8677444
  },

  {
    "city":"Chennai",
    "state_region":" Tamil Nadu",
    "country":" India",
    "lat":13.0826802,
    "lng":80.2707184
  },

  {
    "city":"Baghdad",
    "state_region":"",
    "country":" Iraq",
    "lat":33.3128057,
    "lng":44.3614875
  },

  {
    "city":"Busan",
    "state_region":"",
    "country":" South Korea",
    "lat":35.1795543,
    "lng":129.0756416
  },

  {
    "city":"Los Angeles",
    "state_region":" CA",
    "country":" USA",
    "lat":34.0522342,
    "lng":-118.2436849
  },

  {
    "city":"Yokohama",
    "state_region":" Kanagawa Prefecture",
    "country":" Japan",
    "lat":35.4437078,
    "lng":139.6380256
  },

  {
    "city":"Dhaka",
    "state_region":"",
    "country":" Bangladesh",
    "lat":23.810332,
    "lng":90.4125181
  },

  {
    "city":"Berlin",
    "state_region":"",
    "country":" Germany",
    "lat":52.52000659999999,
    "lng":13.404954
  },

  {
    "city":"Alexandria",
    "state_region":" Alexandria Governorate",
    "country":" Egypt",
    "lat":31.2000924,
    "lng":29.9187387
  },

  {
    "city":"Bengaluru",
    "state_region":" Karnataka",
    "country":" India",
    "lat":12.9715987,
    "lng":77.5945627
  },

  {
    "city":"Malang",
    "state_region":" Malang City",
    "country":" Indonesia",
    "lat":-7.9666204,
    "lng":112.6326321
  },

  {
    "city":"Hyderabad",
    "state_region":" Telangana",
    "country":" India",
    "lat":17.385044,
    "lng":78.486671
  },

  {
    "city":"Chongqing",
    "state_region":"",
    "country":" China",
    "lat":29.56301,
    "lng":106.551556
  },

  {
    "city":"Ho Chi Minh City",
    "state_region":" Ho Chi Minh",
    "country":" Vietnam",
    "lat":10.8230989,
    "lng":106.6296638
  },

  {
    "city":"Harbin",
    "state_region":" Heilongjiang",
    "country":" China",
    "lat":45.80377499999999,
    "lng":126.534967
  },

  {
    "city":"Ankara",
    "state_region":"",
    "country":" Turkey",
    "lat":39.9333635,
    "lng":32.8597419
  },

  {
    "city":"Buenos Aires",
    "state_region":" Autonomous City of Buenos Aires",
    "country":" Argentina",
    "lat":-34.6036844,
    "lng":-58.3815591
  },

  {
    "city":"Chengdu",
    "state_region":" Sichuan",
    "country":" China",
    "lat":30.572816,
    "lng":104.066801
  },

  {
    "city":"Ahmedabad",
    "state_region":" Gujarat",
    "country":" India",
    "lat":23.022505,
    "lng":72.5713621
  },

  {
    "city":"Casablanca",
    "state_region":"",
    "country":" Morocco",
    "lat":33.5731104,
    "lng":-7.589843399999999
  },

  {
    "city":"Chicago",
    "state_region":" IL",
    "country":" USA",
    "lat":41.8781136,
    "lng":-87.6297982
  },

  {
    "city":"Xi'an",
    "state_region":" Shaanxi",
    "country":" China",
    "lat":34.341575,
    "lng":108.93977
  },

  {
    "city":"Madrid",
    "state_region":"",
    "country":" Spain",
    "lat":40.4167754,
    "lng":-3.7037902
  },

  {
    "city":"Surabaya",
    "state_region":" Surabaya City",
    "country":" Indonesia",
    "lat":-7.2574719,
    "lng":112.7520883
  },

  {
    "city":"Nanjing",
    "state_region":" Jiangsu",
    "country":" China",
    "lat":32.060255,
    "lng":118.796877
  },

  {
    "city":"Rome",
    "state_region":"",
    "country":" Italy",
    "lat":41.9027835,
    "lng":12.4963655
  },

  {
    "city":"Taipei City",
    "state_region":"",
    "country":" Taiwan",
    "lat":25.0329636,
    "lng":121.5654268
  },

  {
    "city":"Osaka",
    "state_region":" Osaka Prefecture",
    "country":" Japan",
    "lat":34.6937378,
    "lng":135.5021651
  },

  {
    "city":"Kiev",
    "state_region":"",
    "country":" Ukraine",
    "lat":50.4501,
    "lng":30.5234
  },

  {
    "city":"Yangon",
    "state_region":"",
    "country":" Myanmar (Burma)",
    "lat":16.8660694,
    "lng":96.19513200000002
  },

  {
    "city":"Toronto",
    "state_region":" ON",
    "country":" Canada",
    "lat":43.653226,
    "lng":-79.3831843
  },

  {
    "city":"Zibo",
    "state_region":" Shandong",
    "country":" China",
    "lat":36.81348699999999,
    "lng":118.054927
  },

  {
    "city":"Dalian",
    "state_region":" Liaoning",
    "country":" China",
    "lat":38.91400300000001,
    "lng":121.614682
  },

  {
    "city":"Daegu",
    "state_region":"",
    "country":" South Korea",
    "lat":35.8714354,
    "lng":128.601445
  },

  {
    "city":"Addis Ababa",
    "state_region":"",
    "country":" Ethiopia",
    "lat":8.9806034,
    "lng":38.7577605
  },

  {
    "city":"Jinan",
    "state_region":" Shandong",
    "country":" China",
    "lat":36.651216,
    "lng":117.12
  },

  {
    "city":"Salvador",
    "state_region":" State of Bahia",
    "country":" Brazil",
    "lat":-12.9730401,
    "lng":-38.502304
  },

  {
    "city":"Incheon",
    "state_region":"",
    "country":" South Korea",
    "lat":37.4562557,
    "lng":126.7052062
  },

  {
    "city":"Semarang",
    "state_region":" Semarang City",
    "country":" Indonesia",
    "lat":-7.0051453,
    "lng":110.4381254
  },

  {
    "city":"Giza",
    "state_region":" Al Omraneyah",
    "country":" Egypt",
    "lat":30.0130557,
    "lng":31.2088526
  },

  {
    "city":"Changchun",
    "state_region":" Jilin",
    "country":" China",
    "lat":43.817072,
    "lng":125.323544
  },

  {
    "city":"Havana",
    "state_region":"",
    "country":" Cuba",
    "lat":23.1135925,
    "lng":-82.3665956
  },

  {
    "city":"Nagoya",
    "state_region":" Aichi Prefecture",
    "country":" Japan",
    "lat":35.1814464,
    "lng":136.906398
  },

  {
    "city":"Belo Horizonte",
    "state_region":" State of Minas Gerais",
    "country":" Brazil",
    "lat":-19.9166813,
    "lng":-43.9344931
  },

  {
    "city":"Paris",
    "state_region":"",
    "country":" France",
    "lat":48.856614,
    "lng":2.3522219
  },

  {
    "city":"Tashkent",
    "state_region":"",
    "country":" Uzbekistan",
    "lat":41.2994958,
    "lng":69.2400734
  },

  {
    "city":"Fortaleza - Zone 1",
    "state_region":" Fortaleza - State of Ceará",
    "country":" Brazil",
    "lat":-3.7318616,
    "lng":-38.5266704
  },

  {
    "city":"Sukabumi",
    "state_region":" West Java",
    "country":" Indonesia",
    "lat":-6.9277361,
    "lng":106.9299579
  },

  {
    "city":"Cali",
    "state_region":" Valle del Cauca",
    "country":" Colombia",
    "lat":3.4516467,
    "lng":-76.5319854
  },

  {
    "city":"Guayaquil",
    "state_region":"",
    "country":" Ecuador",
    "lat":-2.1709979,
    "lng":-79.9223592
  },

  {
    "city":"Qingdao",
    "state_region":" Shandong",
    "country":" China",
    "lat":36.067108,
    "lng":120.382609
  },

  {
    "city":"Izmir",
    "state_region":" İzmir",
    "country":" Turkey",
    "lat":38.423734,
    "lng":27.142826
  },

  {
    "city":"Cirebon",
    "state_region":" Cirebon City",
    "country":" Indonesia",
    "lat":-6.7320229,
    "lng":108.5523164
  },

  {
    "city":"Taiyuan",
    "state_region":" Shanxi",
    "country":" China",
    "lat":37.87059,
    "lng":112.548879
  },

  {
    "city":"Brasília - Brasilia",
    "state_region":" Federal District",
    "country":" Brazil",
    "lat":-15.7942287,
    "lng":-47.8821658
  },

  {
    "city":"Bucharest",
    "state_region":"",
    "country":" Romania",
    "lat":44.4267674,
    "lng":26.1025384
  },

  {
    "city":"Faisalabad",
    "state_region":"",
    "country":" Pakistan",
    "lat":31.4187142,
    "lng":73.07910729999999
  },

  {
    "city":"Medan",
    "state_region":" Medan City",
    "country":" Indonesia",
    "lat":3.5951956,
    "lng":98.6722227
  },

  {
    "city":"Houston",
    "state_region":" TX",
    "country":" USA",
    "lat":29.7604267,
    "lng":-95.3698028
  },

  {
    "city":"Mashhad",
    "state_region":" Razavi Khorasan Province",
    "country":" Iran",
    "lat":36.2604623,
    "lng":59.6167549
  },

  {
    "city":"Medellín",
    "state_region":" Medellin",
    "country":" Colombia",
    "lat":6.253040800000001,
    "lng":-75.5645737
  },

  {
    "city":"Kanpur",
    "state_region":" Uttar Pradesh",
    "country":" India",
    "lat":26.449923,
    "lng":80.3318736
  },

  {
    "city":"Budapest",
    "state_region":"",
    "country":" Hungary",
    "lat":47.497912,
    "lng":19.040235
  },

  {
    "city":"Caracas",
    "state_region":" Capital District",
    "country":" Venezuela",
    "lat":10.4805937,
    "lng":-66.90360629999999
  }
]
